{"cod_qc":"qc00000776","nombre":"AYAVIRI","lat":-14.87267,"lon":-70.59289,"altitud":3224.0,"dept":"PUNO","zona":"Sierra / Selva alta","pp":{"umbral_m":100,"radio_max":15,"area_km2":null,"radio_km":null,"geojson":null},"temp":{"umbral_m":200,"radio_max":30,"area_km2":null,"radio_km":null,"geojson":null},"vecinas":[{"cod_qc":"qc00000764","nombre":"CHUQUIBAMBILLA","lat":-14.78478,"lon":-70.71569,"altitud":3971.0,"dist_km":16.41,"r_pp":0.74,"r_temp":0.725,"dept":"PUNO"},{"cod_qc":"qc00000815","nombre":"PUCARA","lat":-15.04561,"lon":-70.36664,"altitud":3866.0,"dist_km":30.96,"r_pp":0.787,"r_temp":0.92,"dept":"PUNO"},{"cod_qc":"qc00000823","nombre":"SANTA ROSA","lat":-14.62375,"lon":-70.78653,"altitud":3944.0,"dist_km":34.54,"r_pp":0.856,"r_temp":0.929,"dept":"PUNO"},{"cod_qc":"qc00000781","nombre":"AZANGARO","lat":-14.91436,"lon":-70.19075,"altitud":3851.0,"dist_km":43.51,"r_pp":0.802,"r_temp":0.879,"dept":"PUNO"},{"cod_qc":"qc00000783","nombre":"ARAPA","lat":-15.13625,"lon":-70.11822,"altitud":3829.0,"dist_km":58.79,"r_pp":0.766,"r_temp":0.877,"dept":"PUNO"},{"cod_qc":"qc00000778","nombre":"PROGRESO","lat":-14.69011,"lon":-70.02353,"altitud":3913.0,"dist_km":64.53,"r_pp":0.88,"r_temp":0.791,"dept":"PUNO"}]}